<?xml version="1.0" encoding="UTF-8" standalone="yes"?>
<markers>
	<marker name="A &amp; M Carpet &amp; Rugs" lat="39.105494" lng="-77.549112" category="Retail" address="707-MI East Market Street" city="Leesburg" state="VA" postal="20176" country="US"/>
	<marker name="American Carpet" lat="38.969281" lng="-77.383824" category="Retail" address="691 Monroe Street" city="Herndon" state="VA" postal="20176" country="US"/>
	<marker name="Carpet Decor" lat="39.044987" lng="-77.487881" category="Retail" address="20691 Ashburn Road" city="Ashburn" state="VA" postal="20176" country="US"/>
	<marker name="Carpetland (Alexandria)" lat="38.807775" lng="-77.086459" category="Retail" address="3230 Duke Street" city="Alexandria" state="VA" postal="22314" country="US"/>
	<marker name="Carpetland (Woodbridge)" lat="38.64653" lng="-77.293407" category="Retail" address="713 Potomac Mills Circle" city="Woodbridge" state="VA" postal="22192" country="US"/>
	<marker name="Carpetland (Falls Church)" lat="38.848642" lng="-77.125134" category="Retail" address="5520 Leesburg Pike	Falls Church" city="Falls Church" state="VA" postal="22041" country="US"/>
	<marker name="Carpet &amp; Wood Outlet, Inc." lat="38.889584" lng="76.854029" category="Retail" address="17 Hampton Park Blvd." city="Capitol Heights" state="MD" postal="20743" country="US"/>
	<marker name="Carpet Royale" lat="38.759762" lng="-77.455287" category="Retail" address="9091 Liberia Ave." city="Manassas" state="VA" postal="20110" country="US"/>
	<marker name="Carpet &amp; Floor Outlet" lat="38.638891" lng="-77.295552" category="Retail" address="2785 Metro Plaza" city="Woodbridge" state="VA" postal="22192" country="US"/>
	<marker name="Carpet Center" lat="39.103948" lng="-76.844068" category="Retail" address="304 Main Street" city="Laurel" state="MD" postal="20707" country="US"/>
	<marker name="Chih-Kuang Hus" lat="38.8522" lng="-77.3679" category="Retail" address="4578 Kieland Ridge Road" city="Fairfax" state="VA" postal="22030" country="US"/>
	<marker name="Clarks Flooring, Inc." lat="38.264158" lng="-76.455723" category="Retail" address="21724 Great Mills Road" city="Lexington Park" state="MD" postal="20653" country="US"/>
	<marker name="Color Flooring" lat="38.794166" lng="-77.082421" category="Retail" address="5739 Telegraph Road" city="Alexandria" state="VA" postal="22303" country="US"/>
	<marker name="Creative Concepts" lat="38.871095" lng="-77.231627" category="Retail" address="929-J Eskridge Road" city="Fairfax" state="VA" postal="22031" country="US"/>
	<marker name="Crown Floors" lat="38.910285" lng="-77.469422" category="Retail" address="3857-A Dulles South Ct." city="Chantilly" state="VA" postal="20151" country="US"/>
	<marker name="Discount Floor &amp; Remodeling" lat="38.84703" lng="-77.127254" category="Retail" address="5818-A Seminary Road" city="Falls Church" state="VA" postal="22041" country="US"/>
	<marker name="Ebby's Finishing Touches Floor" lat="38.237897" lng="-76.500162" category="Retail" address="20256 Point Lookout Road" city="Great Mill" state="MD" postal="20634" country="US"/>
	<marker name="Elegant Carpet &amp; Floor" lat="39.016167" lng="-77.455967" category="Retail" address="21770 Beaumeade Circle" city="Ashburn" state="VA" postal="20147" country="US"/>
	<marker name="Expo Flooring" lat="38.927195" lng="-76.572915" category="Retail" address="64 West Central Ave" city="Edgewater" state="MD" postal="21037" country="US"/>
	<marker name="F &amp; M Flooring" lat="38.88651" lng="-76.900417" category="Retail" address="7909 Central Ave." city="Capitol Heights" state="MD" postal="20743" country="US"/>
	<marker name="Flooring and Cabinet Outlet" lat="39.035948" lng="-77.408221" category="Retail" address="46005 Regal Plaza" city="Sterling" state="VA" postal="20165" country="US"/>
	<marker name="Floors &amp; Kitchen, Inc." lat="39.034328" lng="-77.395927" category="Retail" address="21000 Southbank Street" city="Sterling" state="VA" postal="20165" country="US"/>
	<marker name="Floor &amp; Design of Ashburn, Inc." lat="39.061801" lng="-77.468269" category="Retail" address="20020 Ashbrook Commons Plaza" city="Ashburn" state="VA" postal="20147" country="US"/>
	<marker name="Floors on 14th, LLC" lat="38.9152" lng="-77.032261" category="Retail" address="1832 14th St., NW" city="Washington" state="DC" postal="20009" country="US"/>
	<marker name="Flooring America" lat="39.166042" lng="-78.1712" category="Retail" address="29 E Jubal Early Dr." city="Winchester" state="VA" postal="22601" country="US"/>
	<marker name="Flooring America" lat="39.018479" lng="-77.452647" category="Retail" address="44710 Cape Ct." city="Ashburn" state="VA" postal="20147" country="US"/>
	<marker name="Flooring and Cabinet Outlet" lat="39.035948" lng="-77.408221" category="Retail" address="46005 Regal Plaza" city="Sterling" state="VA" postal="20165" country="US"/>
	<marker name="Floors &amp; More" lat="39.1878" lng="-78.119735" category="Retail" address="1863 Berryville Pike" city="Winchester" state="VA" postal="22603" country="US"/>
	<marker name="Georgetown Carpet" lat="38.856501" lng="-77.314757" category="Retail" address="10708 Fairfax Blvd." city="Fairfax" state="VA" postal="22030" country="US"/>
	<marker name="Great Falls Floors" lat="39.001537" lng="-77.343138" category="Retail" address="1025-K Seneca Road" city="Great Falls" state="VA" postal="22066" country="US"/>
	<marker name="Hannah Xiu" lat="38.837437" lng="-77.388732" category="Retail" address="5380 Harrow Lane" city="Fairfax" state="VA" postal="22030" country="US"/>
	<marker name="Harvey's Remodeling, Inc." lat="39.023172" lng="-77.455442" category="Retail" address="44642 Guilford Dr." city="Ashburn" state="VA" postal="20147" country="US"/>
	<marker name="Harvest Chineese Christian Chu" lat="38.884878" lng="-77.438279" category="Retail" address="4433 Brookfield Corporate Dr." city="Chantilly" state="VA" postal="20151" country="US"/>
	<marker name="House of Interiors" lat="38.809196" lng="-77.220627" category="Retail" address="5252 Port Royal Road" city="Springfield" state="VA" postal="22151" country="US"/>
	<marker name="Interior Design Flooring, Inc." lat="39.005441" lng="-77.428704" category="Retail" address="45431 Ruritan Circle" city="Sterling" state="VA" postal="20164" country="US"/>
	<marker name="Majic Flooring" lat="39.006537" lng="-77.428787" category="Retail" address="100 Ruritan Road" city="Sterling" state="VA" postal="20164" country="US"/>
	<marker name="Mattressland &amp; Carpetland-VA" lat="38.736107" lng="-77.188661" category="Retail" address="8196-D Terminal Road" city="Lorton" state="VA" postal="22079" country="US"/>
	<marker name="Mattressland &amp; Carpetland -MD" lat="8.8505" lng="-76.886637" category="Retail" address="6960 Marlboro Pike" city="District Heights" state="MD" postal="20747" country="US"/>
	<marker name="Nassief Interiors" lat="38.821845" lng="-77.154268" category="Retail" address="5641 D&amp;U General Washington Dr" city="Alexandria" state="VA" postal="22312" country="US"/>
	<marker name="New York Carpet &amp; Floor" lat="38.778594" lng="-77.184005" category="Retail" address="6509 Backlick Road" city="Springfield" state="VA" postal="22150" country="US"/>
	<marker name="Perge Carpet &amp; Floors" lat="39.040592" lng="-77.050914" category="Retail" address="11305 Georgia Ave." city="Silver Spring" state="MD" postal="20902" country="US"/>
	<marker name="Premier Floors(home Ctr), Inc." lat="39.010595" lng="-77.417761" category="Retail" address="45714 Oakbrook Ct." city="Sterling" state="VA" postal="20166" country="US"/>
	<marker name="Priceless Carpet One" lat="39.434224" lng="-76.629592" category="Retail" address="1968 Greenspring Dr." city="Lutherville Timonium" state="MD" postal="21093" country="US"/>
	<marker name="Qunjie Chen" lat="38.851182" lng="-77.36133" category="Retail" address="12015 English Maple Lane" city="Fairfax" state="VA" postal="22030" country="US"/>
	<marker name="Renaissance Floors" lat="39.068588" lng="-77.130849" category="Retail" address="1319 Rockville Pike" city="Rockville" state="MD" postal="20852" country="US"/>
	<marker name="Headquarters" lat="38.955796" lng="-77.379526" category="Headquarters" address="520 Herndon Parkway" city="Herndon" state="VA" postal="20170" country="US"/>
	<marker name="Main Warehouse" lat="38.982704" lng="-77.476645" category="Warehouse" address="22890 Quicksilver Dr. #152" city="Sterling" state="VA" postal="20166" country="US"/>
	<marker name="Warehouse" lat="39.056307" lng="-76.884328" category="Warehouse" address="12204 Old Baltimore Pike" city="Beltsville" state="MD" postal="20705" country="US"/>
	<marker name="Aaction Flooring" lat="39.1092712" lng="-76.6305931" category="Retail" address="8324 Veterans Hwy Unit 2" city="Millersville" state="MD" postal="21108" country="US"/>
	<marker name="Atlantic Floors Inc" lat="38.8481085" lng="-77.2721724" category="Retail" address="3809 Pickett Road" city="Fairfax" state="VA" postal="22031" country="US"/>
	<marker name="Ark Carpet &amp; Flooring" lat="38.898544" lng="-76.7902649" category="Retail" address="66 Watkins Park Dr" city="Upper Marlboro" state="MD" postal="20774" country="US"/>
	<marker name="BLP Carpets" lat="39.0305189" lng="-76.9128582" category="Retail" address="10711 Baltimore Ave" city="Beltsville" state="MD" postal="20705" country="US" phone="(301) 937-6465" web="blpcarpets.com"/>
</markers>